[
  {
    "id": "jewboy-burgers-austin",
    "name": "Jewboy Burgers",
    "address": "5111 Airport Blvd, Austin, TX 78751",
    "latitude": 30.3158,
    "longitude": -97.7145,
    "phone": "(512) 291-3358",
    "website": "https://www.jewboyburgers.com",
    "hours": "Mon–Sat 11am–9pm",
    "certification": "OU",
    "cuisine": ["Burgers", "Diners"],
    "city": "Austin",
    "state": "TX",
    "description": "Cult-classic Austin burger joint serving up smash burgers, loaded fries, and brisket sandwiches with bold Jewish-inspired flavors.",
    "imageUrl": "https://images.unsplash.com/photo-1568901346375-23c9450c58cd?w=600&h=400&fit=crop",
    "rating": 4.6,
    "reviewCount": 1700,
    "priceLevel": "$$"
  },
  {
    "id": "the-kosher-store-austin",
    "name": "The Kosher Store",
    "address": "7025 Village Center Dr, Austin, TX 78731",
    "latitude": 30.3629,
    "longitude": -97.7616,
    "phone": "(512) 502-8459",
    "hours": "Mon–Fri 10am–7pm",
    "certification": "OU",
    "cuisine": ["Kosher", "Salad", "Wraps"],
    "city": "Austin",
    "state": "TX",
    "description": "Austin's dedicated kosher market and eatery in Northwest Hills, offering fresh salads, wraps, and a curated selection of kosher groceries.",
    "imageUrl": "https://images.unsplash.com/photo-1540914124281-342587941389?w=600&h=400&fit=crop",
    "rating": 3.7,
    "reviewCount": 33,
    "priceLevel": "$$"
  },
  {
    "id": "franklin-barbecue-austin",
    "name": "Franklin Barbecue",
    "address": "900 E 11th St, Austin, TX 78702",
    "latitude": 30.2701,
    "longitude": -97.7312,
    "phone": "(512) 653-1187",
    "website": "https://www.franklinbbq.com",
    "hours": "Tue–Sun 11am–3pm",
    "cuisine": ["Barbeque"],
    "city": "Austin",
    "state": "TX",
    "description": "World-famous Texas barbecue known for its melt-in-your-mouth brisket, pulled pork, and legendary lines that wrap around the block.",
    "imageUrl": "https://images.unsplash.com/photo-1529006557810-274b9b2fc783?w=600&h=400&fit=crop",
    "rating": 4.5,
    "reviewCount": 6400,
    "priceLevel": "$$"
  },
  {
    "id": "salty-sow-austin",
    "name": "Salty Sow",
    "address": "1917 Manor Rd, Austin, TX 78722",
    "latitude": 30.2872,
    "longitude": -97.7189,
    "phone": "(512) 391-2337",
    "website": "https://www.saltysow.com",
    "hours": "Mon–Sun 4:30pm–9pm",
    "cuisine": ["American", "Gastropub"],
    "city": "Austin",
    "state": "TX",
    "description": "Upscale gastropub on Manor Road featuring inventive American cuisine, craft cocktails, and a charming patio atmosphere.",
    "imageUrl": "https://images.unsplash.com/photo-1414235077428-338989a2e8c0?w=600&h=400&fit=crop",
    "rating": 4.3,
    "reviewCount": 3400,
    "priceLevel": "$$$"
  },
  {
    "id": "the-shuk-austin",
    "name": "The Shuk",
    "address": "13450 Research Blvd Ste 229, Austin, TX 78750",
    "latitude": 30.4514,
    "longitude": -97.7924,
    "phone": "(512) 876-0028",
    "website": "https://www.theshuktexas.com",
    "hours": "Mon–Fri 10am–8pm",
    "cuisine": ["Grocery", "International Grocery"],
    "city": "Austin",
    "state": "TX",
    "description": "International kosher grocery and specialty store in northwest Austin, stocking Israeli imports, fresh baked goods, and hard-to-find kosher products.",
    "imageUrl": "https://images.unsplash.com/photo-1578916171728-46686eac8d58?w=600&h=400&fit=crop",
    "rating": 4.7,
    "reviewCount": 15
  }
]
